{
"type": "FeatureCollection",
"crs": { "type": "name", "properties": { "name": "urn:ogc:def:crs:OGC:1.3:CRS84" } },
"features": [
{ "type": "Feature", "properties": { "BUILDING": "arch", "ADDR_CITY": null, "A_STRT": null, "A_SBRB": null, "A_HSNMBR": null, "A_PLACE": null, "A_PSTCD": null, "B_LEVELS": null, "NAME": null, "NAME_EN": null, "OSM_TYPE": "node", "OSM_ID": 427911015 }, "geometry": { "type": "Point", "coordinates": [ 76.4217758, 30.6429322 ] } },
{ "type": "Feature", "properties": { "BUILDING": "public", "ADDR_CITY": null, "A_STRT": null, "A_SBRB": null, "A_HSNMBR": null, "A_PLACE": null, "A_PSTCD": null, "B_LEVELS": null, "NAME": "STATE CRIME BRANCH OFFICE", "NAME_EN": null, "OSM_TYPE": "node", "OSM_ID": 1323258940 }, "geometry": { "type": "Point", "coordinates": [ 76.718109500000011, 30.7147001 ] } },
{ "type": "Feature", "properties": { "BUILDING": "yes", "ADDR_CITY": null, "A_STRT": null, "A_SBRB": null, "A_HSNMBR": null, "A_PLACE": null, "A_PSTCD": null, "B_LEVELS": null, "NAME": "NRMU", "NAME_EN": null, "OSM_TYPE": "node", "OSM_ID": 1447314449 }, "geometry": { "type": "Point", "coordinates": [ 76.8304611, 30.3379959 ] } },
{ "type": "Feature", "properties": { "BUILDING": "yes", "ADDR_CITY": null, "A_STRT": null, "A_SBRB": null, "A_HSNMBR": null, "A_PLACE": null, "A_PSTCD": null, "B_LEVELS": null, "NAME": "Railway Auditorium", "NAME_EN": null, "OSM_TYPE": "node", "OSM_ID": 1447314658 }, "geometry": { "type": "Point", "coordinates": [ 76.8303757, 30.3378596 ] } },
{ "type": "Feature", "properties": { "BUILDING": "house", "ADDR_CITY": null, "A_STRT": null, "A_SBRB": null, "A_HSNMBR": null, "A_PLACE": null, "A_PSTCD": null, "B_LEVELS": null, "NAME": "Teacher's Quaters", "NAME_EN": null, "OSM_TYPE": "node", "OSM_ID": 1503951923 }, "geometry": { "type": "Point", "coordinates": [ 76.3972372, 30.647739 ] } },
{ "type": "Feature", "properties": { "BUILDING": "yes", "ADDR_CITY": null, "A_STRT": null, "A_SBRB": null, "A_HSNMBR": null, "A_PLACE": null, "A_PSTCD": null, "B_LEVELS": null, "NAME": "PGIMER", "NAME_EN": null, "OSM_TYPE": "node", "OSM_ID": 1830591637 }, "geometry": { "type": "Point", "coordinates": [ 76.7747522, 30.7635373 ] } },
{ "type": "Feature", "properties": { "BUILDING": "office", "ADDR_CITY": null, "A_STRT": null, "A_SBRB": null, "A_HSNMBR": null, "A_PLACE": null, "A_PSTCD": null, "B_LEVELS": null, "NAME": "Quarkcity", "NAME_EN": null, "OSM_TYPE": "node", "OSM_ID": 1830597874 }, "geometry": { "type": "Point", "coordinates": [ 76.6924979, 30.7059277 ] } },
{ "type": "Feature", "properties": { "BUILDING": "yes", "ADDR_CITY": null, "A_STRT": null, "A_SBRB": null, "A_HSNMBR": null, "A_PLACE": null, "A_PSTCD": null, "B_LEVELS": null, "NAME": "AVON", "NAME_EN": null, "OSM_TYPE": "node", "OSM_ID": 1830612202 }, "geometry": { "type": "Point", "coordinates": [ 76.6897966, 30.7141211 ] } },
{ "type": "Feature", "properties": { "BUILDING": "office", "ADDR_CITY": null, "A_STRT": null, "A_SBRB": null, "A_HSNMBR": "C180, Phase 8B, Industrial Area, Mohali", "A_PLACE": null, "A_PSTCD": "160071", "B_LEVELS": null, "NAME": "EON INFOTECH LTD.", "NAME_EN": null, "OSM_TYPE": "node", "OSM_ID": 1830613521 }, "geometry": { "type": "Point", "coordinates": [ 76.6895554, 30.7137636 ] } },
{ "type": "Feature", "properties": { "BUILDING": "office", "ADDR_CITY": null, "A_STRT": null, "A_SBRB": null, "A_HSNMBR": "Sector 39", "A_PLACE": null, "A_PSTCD": "160039", "B_LEVELS": null, "NAME": "Weather Center (Mausum Kendra)", "NAME_EN": null, "OSM_TYPE": "node", "OSM_ID": 2210727958 }, "geometry": { "type": "Point", "coordinates": [ 76.730927900000012, 30.7402077 ] } },
{ "type": "Feature", "properties": { "BUILDING": "office", "ADDR_CITY": null, "A_STRT": null, "A_SBRB": null, "A_HSNMBR": "SCO 333-334, Level 2, Sector 35/B, Chandigarh", "A_PLACE": null, "A_PSTCD": "160036", "B_LEVELS": null, "NAME": "Ghar Buyer Private Limited", "NAME_EN": null, "OSM_TYPE": "node", "OSM_ID": 2303573226 }, "geometry": { "type": "Point", "coordinates": [ 76.7651628, 30.7248332 ] } },
{ "type": "Feature", "properties": { "BUILDING": "church", "ADDR_CITY": null, "A_STRT": "Grand Trunk Road", "A_SBRB": null, "A_HSNMBR": null, "A_PLACE": null, "A_PSTCD": null, "B_LEVELS": null, "NAME": null, "NAME_EN": null, "OSM_TYPE": "node", "OSM_ID": 2313948741 }, "geometry": { "type": "Point", "coordinates": [ 76.2299053, 30.6999947 ] } },
{ "type": "Feature", "properties": { "BUILDING": "yes", "ADDR_CITY": null, "A_STRT": "Samrala-Behlolpur Road", "A_SBRB": null, "A_HSNMBR": null, "A_PLACE": null, "A_PSTCD": null, "B_LEVELS": null, "NAME": "Malwa Filling Station", "NAME_EN": null, "OSM_TYPE": "node", "OSM_ID": 2415697823 }, "geometry": { "type": "Point", "coordinates": [ 76.2899507, 30.878385 ] } },
{ "type": "Feature", "properties": { "BUILDING": "yes", "ADDR_CITY": null, "A_STRT": "Samrala-Behlolpur Road", "A_SBRB": null, "A_HSNMBR": null, "A_PLACE": null, "A_PSTCD": null, "B_LEVELS": null, "NAME": null, "NAME_EN": null, "OSM_TYPE": "node", "OSM_ID": 2415697826 }, "geometry": { "type": "Point", "coordinates": [ 76.3043122, 30.8863148 ] } },
{ "type": "Feature", "properties": { "BUILDING": "residential", "ADDR_CITY": "Chandigarh", "A_STRT": "Sector 45A", "A_SBRB": null, "A_HSNMBR": "269", "A_PLACE": null, "A_PSTCD": "160047", "B_LEVELS": "1", "NAME": "Manik Singh", "NAME_EN": null, "OSM_TYPE": "node", "OSM_ID": 3392837186 }, "geometry": { "type": "Point", "coordinates": [ 76.76265260000001, 30.7111158 ] } },
{ "type": "Feature", "properties": { "BUILDING": "yes", "ADDR_CITY": null, "A_STRT": null, "A_SBRB": null, "A_HSNMBR": null, "A_PLACE": null, "A_PSTCD": null, "B_LEVELS": null, "NAME": "Bhabat Automobiles", "NAME_EN": null, "OSM_TYPE": "node", "OSM_ID": 3431049785 }, "geometry": { "type": "Point", "coordinates": [ 76.61512, 30.4994152 ] } },
{ "type": "Feature", "properties": { "BUILDING": "yes", "ADDR_CITY": null, "A_STRT": null, "A_SBRB": null, "A_HSNMBR": null, "A_PLACE": null, "A_PSTCD": null, "B_LEVELS": null, "NAME": "Hira Automobiles", "NAME_EN": null, "OSM_TYPE": "node", "OSM_ID": 3431050298 }, "geometry": { "type": "Point", "coordinates": [ 76.561419, 30.4505673 ] } },
{ "type": "Feature", "properties": { "BUILDING": "yes", "ADDR_CITY": null, "A_STRT": null, "A_SBRB": null, "A_HSNMBR": null, "A_PLACE": null, "A_PSTCD": null, "B_LEVELS": null, "NAME": "Mohabbat Palace", "NAME_EN": null, "OSM_TYPE": "node", "OSM_ID": 3431050304 }, "geometry": { "type": "Point", "coordinates": [ 76.5716833, 30.4591323 ] } },
{ "type": "Feature", "properties": { "BUILDING": "yes", "ADDR_CITY": null, "A_STRT": null, "A_SBRB": null, "A_HSNMBR": null, "A_PLACE": null, "A_PSTCD": null, "B_LEVELS": null, "NAME": "RTTC, BSNL Rajpura", "NAME_EN": null, "OSM_TYPE": "node", "OSM_ID": 3431050321 }, "geometry": { "type": "Point", "coordinates": [ 76.5696435, 30.4670676 ] } },
{ "type": "Feature", "properties": { "BUILDING": "yes", "ADDR_CITY": null, "A_STRT": null, "A_SBRB": null, "A_HSNMBR": null, "A_PLACE": null, "A_PSTCD": null, "B_LEVELS": null, "NAME": "Ram Honda", "NAME_EN": null, "OSM_TYPE": "node", "OSM_ID": 3431050323 }, "geometry": { "type": "Point", "coordinates": [ 76.565680300000011, 30.4542842 ] } },
{ "type": "Feature", "properties": { "BUILDING": "residential", "ADDR_CITY": null, "A_STRT": null, "A_SBRB": null, "A_HSNMBR": null, "A_PLACE": null, "A_PSTCD": null, "B_LEVELS": null, "NAME": "Young Dwellers Housing Society", "NAME_EN": null, "OSM_TYPE": "node", "OSM_ID": 3622683672 }, "geometry": { "type": "Point", "coordinates": [ 76.7522194, 30.6970895 ] } },
{ "type": "Feature", "properties": { "BUILDING": "yes", "ADDR_CITY": null, "A_STRT": null, "A_SBRB": null, "A_HSNMBR": null, "A_PLACE": null, "A_PSTCD": null, "B_LEVELS": "4", "NAME": "Chandigarh College of Hotel Management And Catering Technology", "NAME_EN": null, "OSM_TYPE": "node", "OSM_ID": 4339572395 }, "geometry": { "type": "Point", "coordinates": [ 76.6642741, 30.6856666 ] } },
{ "type": "Feature", "properties": { "BUILDING": "yes", "ADDR_CITY": null, "A_STRT": null, "A_SBRB": null, "A_HSNMBR": null, "A_PLACE": null, "A_PSTCD": null, "B_LEVELS": null, "NAME": "LC-A Block", "NAME_EN": null, "OSM_TYPE": "node", "OSM_ID": 4393899629 }, "geometry": { "type": "Point", "coordinates": [ 76.573269700000012, 30.7701679 ] } },
{ "type": "Feature", "properties": { "BUILDING": "yes", "ADDR_CITY": null, "A_STRT": null, "A_SBRB": null, "A_HSNMBR": null, "A_PLACE": null, "A_PSTCD": null, "B_LEVELS": "7", "NAME": "Block-1", "NAME_EN": null, "OSM_TYPE": "node", "OSM_ID": 4393913180 }, "geometry": { "type": "Point", "coordinates": [ 76.575543, 30.7696596 ] } },
{ "type": "Feature", "properties": { "BUILDING": "yes", "ADDR_CITY": null, "A_STRT": null, "A_SBRB": null, "A_HSNMBR": null, "A_PLACE": null, "A_PSTCD": null, "B_LEVELS": "6", "NAME": "Sukhna Hostel", "NAME_EN": null, "OSM_TYPE": "node", "OSM_ID": 4393950583 }, "geometry": { "type": "Point", "coordinates": [ 76.57776770000001, 30.7705689 ] } },
{ "type": "Feature", "properties": { "BUILDING": "yes", "ADDR_CITY": null, "A_STRT": null, "A_SBRB": null, "A_HSNMBR": null, "A_PLACE": null, "A_PSTCD": null, "B_LEVELS": null, "NAME": "Block-2", "NAME_EN": null, "OSM_TYPE": "node", "OSM_ID": 4393950586 }, "geometry": { "type": "Point", "coordinates": [ 76.57581780000001, 30.7691822 ] } },
{ "type": "Feature", "properties": { "BUILDING": "yes", "ADDR_CITY": null, "A_STRT": null, "A_SBRB": null, "A_HSNMBR": null, "A_PLACE": null, "A_PSTCD": null, "B_LEVELS": null, "NAME": "Block-3", "NAME_EN": null, "OSM_TYPE": "node", "OSM_ID": 4393950587 }, "geometry": { "type": "Point", "coordinates": [ 76.576193600000011, 30.7681584 ] } },
{ "type": "Feature", "properties": { "BUILDING": "yes", "ADDR_CITY": null, "A_STRT": null, "A_SBRB": null, "A_HSNMBR": null, "A_PLACE": null, "A_PSTCD": null, "B_LEVELS": null, "NAME": "Workshops", "NAME_EN": null, "OSM_TYPE": "node", "OSM_ID": 4393950588 }, "geometry": { "type": "Point", "coordinates": [ 76.57506140000001, 30.7680944 ] } },
{ "type": "Feature", "properties": { "BUILDING": "yes", "ADDR_CITY": null, "A_STRT": null, "A_SBRB": null, "A_HSNMBR": null, "A_PLACE": null, "A_PSTCD": null, "B_LEVELS": null, "NAME": "Block-4", "NAME_EN": null, "OSM_TYPE": "node", "OSM_ID": 4393952889 }, "geometry": { "type": "Point", "coordinates": [ 76.574632200000011, 30.7673108 ] } },
{ "type": "Feature", "properties": { "BUILDING": "yes", "ADDR_CITY": null, "A_STRT": null, "A_SBRB": null, "A_HSNMBR": null, "A_PLACE": null, "A_PSTCD": null, "B_LEVELS": null, "NAME": "Block-6", "NAME_EN": null, "OSM_TYPE": "node", "OSM_ID": 4393952890 }, "geometry": { "type": "Point", "coordinates": [ 76.5760967, 30.766896 ] } },
{ "type": "Feature", "properties": { "BUILDING": "yes", "ADDR_CITY": null, "A_STRT": null, "A_SBRB": null, "A_HSNMBR": null, "A_PLACE": null, "A_PSTCD": null, "B_LEVELS": null, "NAME": "Block-5", "NAME_EN": null, "OSM_TYPE": "node", "OSM_ID": 4393952891 }, "geometry": { "type": "Point", "coordinates": [ 76.5760431, 30.7663014 ] } },
{ "type": "Feature", "properties": { "BUILDING": "yes", "ADDR_CITY": null, "A_STRT": null, "A_SBRB": null, "A_HSNMBR": null, "A_PLACE": null, "A_PSTCD": null, "B_LEVELS": null, "NAME": "Tagore Hostel", "NAME_EN": null, "OSM_TYPE": "node", "OSM_ID": 4393952894 }, "geometry": { "type": "Point", "coordinates": [ 76.5758831, 30.7653934 ] } },
{ "type": "Feature", "properties": { "BUILDING": "yes", "ADDR_CITY": null, "A_STRT": null, "A_SBRB": null, "A_HSNMBR": null, "A_PLACE": null, "A_PSTCD": null, "B_LEVELS": null, "NAME": "Zakir Hostel", "NAME_EN": null, "OSM_TYPE": "node", "OSM_ID": 4393952895 }, "geometry": { "type": "Point", "coordinates": [ 76.5724737, 30.7640217 ] } },
{ "type": "Feature", "properties": { "BUILDING": "yes", "ADDR_CITY": null, "A_STRT": null, "A_SBRB": null, "A_HSNMBR": null, "A_PLACE": null, "A_PSTCD": null, "B_LEVELS": null, "NAME": "Block-7", "NAME_EN": null, "OSM_TYPE": "node", "OSM_ID": 4393952896 }, "geometry": { "type": "Point", "coordinates": [ 76.5785322, 30.7690393 ] } },
{ "type": "Feature", "properties": { "BUILDING": "yes", "ADDR_CITY": null, "A_STRT": null, "A_SBRB": null, "A_HSNMBR": null, "A_PLACE": null, "A_PSTCD": null, "B_LEVELS": null, "NAME": "Jassi Khangura Dairy Farm", "NAME_EN": null, "OSM_TYPE": "node", "OSM_ID": 4755569963 }, "geometry": { "type": "Point", "coordinates": [ 76.4415008, 30.5766029 ] } },
{ "type": "Feature", "properties": { "BUILDING": "yes", "ADDR_CITY": null, "A_STRT": null, "A_SBRB": null, "A_HSNMBR": null, "A_PLACE": null, "A_PSTCD": null, "B_LEVELS": null, "NAME": "Mech", "NAME_EN": null, "OSM_TYPE": "node", "OSM_ID": 4968218419 }, "geometry": { "type": "Point", "coordinates": [ 76.6581192, 30.5155602 ] } },
{ "type": "Feature", "properties": { "BUILDING": "university", "ADDR_CITY": null, "A_STRT": null, "A_SBRB": null, "A_HSNMBR": null, "A_PLACE": null, "A_PSTCD": null, "B_LEVELS": "4", "NAME": "Institute of Nano Science and Technology", "NAME_EN": null, "OSM_TYPE": "node", "OSM_ID": 10697449707 }, "geometry": { "type": "Point", "coordinates": [ 76.7275024, 30.6609447 ] } }
]
}
